{
  "type": "FeatureCollection",
  "features": [
    {
      "type": "Feature",
      "geometry": {
        "type": "Point",
        "coordinates": [ -78.7628355, 39.6349363 ]
    },
      "properties": {
        "name": "Dispensary in Baltimore Maryland LLC",
        "phone": "888-446-3420",
        "address": "308 Virginia Ave",
        "city": "Cumberland",
        "district": 1,
        "county" : "",
        "postalCode": "21502"
      }
    },
    {
      "type": "Feature",
      "geometry": {
        "type": "Point",
        "coordinates": [ -76.52051840000001, 39.2506633 ]
    },
      "properties": {
        "name": "Dispensary 2",
        "phone": "888-221-2222",
        "address": "1234 Apple Ave",
        "city": "Dundalk",
        "district": 1,
        "county" : "",
        "postalCode": "20842"
      }
    },
    {
      "type": "Feature",
      "geometry": {
        "type": "Point",
        "coordinates": [ -76.52051840000001, 39.2506633 ]
    },
      "properties": {
        "name": "Dispensary 3",
        "phone": "888-221-2222",
        "address": "1234 Apple Ave",
        "city": "Dundalk",
        "district": 1,
        "county" : "",
        "postalCode": "20842"
      }
    },
    {
      "type": "Feature",
      "geometry": {
        "type": "Point",
        "coordinates": [ -76.52051840000001, 39.2506633 ]
    },
      "properties": {
        "name": "Dispensary 4",
        "phone": "888-221-2222",
        "address": "1234 Apple Ave",
        "city": "Dundalk",
        "district": 1,
        "county" : "",
        "postalCode": "20842"
      }
    },
    {
      "type": "Feature",
      "geometry": {
        "type": "Point",
        "coordinates": [ -76.52051840000001, 39.2506633 ]
    },
      "properties": {
        "name": "Dispensary 5",
        "phone": "888-221-2222",
        "address": "1234 Apple Ave",
        "city": "Dundalk",
        "district": 1,
        "county" : "",
        "postalCode": "20842"
      }
    },
    {
      "type": "Feature",
      "geometry": {
        "type": "Point",
        "coordinates": [ -76.52051840000001, 39.2506633 ]
    },
      "properties": {
        "name": "Dispensary 6",
        "phone": "888-221-2222",
        "address": "1234 Apple Ave",
        "city": "Dundalk",
        "district": 1,
        "county" : "",
        "postalCode": "20842"
      }
    },
    {
      "type": "Feature",
      "geometry": {
        "type": "Point",
        "coordinates": [ -76.52051840000001, 39.2506633 ]
    },
      "properties": {
        "name": "Dispensary 7",
        "phone": "888-221-2222",
        "address": "1234 Apple Ave",
        "city": "Dundalk",
        "district": 1,
        "county" : "",
        "postalCode": "20842"
      }
    },
    {
      "type": "Feature",
      "geometry": {
        "type": "Point",
        "coordinates": [ -76.52051840000001, 39.2506633 ]
    },
      "properties": {
        "name": "Dispensary 8",
        "phone": "888-221-2222",
        "address": "1234 Apple Ave",
        "city": "Dundalk",
        "district": 1,
        "county" : "",
        "postalCode": "20842"
      }
    },
    {
      "type": "Feature",
      "geometry": {
        "type": "Point",
        "coordinates": [ -76.52051840000001, 39.2506633 ]
    },
      "properties": {
        "name": "Dispensary 9",
        "phone": "888-221-2222",
        "address": "1234 Apple Ave",
        "city": "Dundalk",
        "district": 1,
        "county" : "",
        "postalCode": "20842"
      }
    },
    {
      "type": "Feature",
      "geometry": {
        "type": "Point",
        "coordinates": [ -76.52051840000001, 39.2506633 ]
    },
      "properties": {
        "name": "Dispensary 10",
        "phone": "888-221-2222",
        "address": "1234 Apple Ave",
        "city": "Dundalk",
        "district": 1,
        "county" : "",
        "postalCode": "20842"
      }
    },
    {
      "type": "Feature",
      "geometry": {
        "type": "Point",
        "coordinates": [ -76.52051840000001, 39.2506633 ]
    },
      "properties": {
        "name": "Dispensary 11",
        "phone": "888-221-2222",
        "address": "1234 Apple Ave",
        "city": "Dundalk",
        "district": 1,
        "county" : "",
        "postalCode": "20842"
      }
    }
  ]
}
