{
  "type": "FeatureCollection",
  "features": [
    {
      "type": "Feature",
      "geometry": {
        "type": "Point",
        "coordinates": [ -76.733652, 39.464766 ]
    },
      "properties": {
        "name": "Forward Gro LLC",
        "phone": "888-234-5678",
        "address": "123 Reisterstown road",
        "city": "Baltimore",
        "district": 1,
        "county" : "Anne Arundel County",
        "postalCode": "21209",
        "facebook": "http://www.youtube.com/",
        "website": "http://www.google.com/"
      }
    },
    {
      "type": "Feature",
      "geometry": {
        "type": "Point",
        "coordinates": [ -76.733652, 39.464766 ]
    },
      "properties": {
        "name": "Temescal Wellness of MD LLC",
        "phone": "888-234-5678",
        "address": "123 Reisterstown road",
        "city": "Baltimore City",
        "district": 1,
        "county" : "Baltimore City",
        "postalCode": "21209",
        "facebook": "http://www.youtube.com/",
        "website": "http://www.google.com/"
      }
    },
    {
      "type": "Feature",
      "geometry": {
        "type": "Point",
        "coordinates": [ -76.733652, 39.464766 ]
    },
      "properties": {
        "name": "Curio Cultivation LLC",
        "phone": "888-234-5678",
        "address": "123 Reisterstown road",
        "city": "Baltimore",
        "district": 1,
        "county" : "Baltimore County",
        "postalCode": "21209",
        "facebook": "http://www.youtube.com/",
        "website": "http://www.google.com/"
      }
    },
    {
      "type": "Feature",
      "geometry": {
        "type": "Point",
        "coordinates": [ -76.733652, 39.464766 ]
    },
      "properties": {
        "name": "Maryland Compassionate Care and Wellness LLC",
        "phone": "888-234-5678",
        "address": "123 Reisterstown road",
        "city": "Baltimore",
        "district": 1,
        "county" : "Carroll County",
        "postalCode": "21209",
        "facebook": "http://www.youtube.com/",
        "website": "http://www.google.com/"
      }
    },
    {
      "type": "Feature",
      "geometry": {
        "type": "Point",
        "coordinates": [ -76.733652, 39.464766 ]
    },
      "properties": {
        "name": "SunMed Growers LLC",
        "phone": "888-234-5678",
        "address": "123 Reisterstown road",
        "city": "Baltimore",
        "district": 1,
        "county" : "Cecil County",
        "postalCode": "21209",
        "facebook": "http://www.youtube.com/",
        "website": "http://www.google.com/"
      }
    },
    {
      "type": "Feature",
      "geometry": {
        "type": "Point",
        "coordinates": [ -76.733652, 39.464766 ]
    },
      "properties": {
        "name": "Doctors Orders Maryland LLC",
        "phone": "888-234-5678",
        "address": "123 Reisterstown road",
        "city": "Baltimore",
        "district": 1,
        "county" : "Dorchester County",
        "postalCode": "21209",
        "facebook": "http://www.youtube.com/",
        "website": "http://www.google.com/"
      }
    },
    {
      "type": "Feature",
      "geometry": {
        "type": "Point",
        "coordinates": [ -76.733652, 39.464766 ]
    },
      "properties": {
        "name": "MaryMed LLC",
        "phone": "888-234-5678",
        "address": "123 Reisterstown road",
        "city": "Dorchester County",
        "district": 1,
        "county" : "Dorchester County",
        "postalCode": "21209",
        "facebook": "http://www.youtube.com/",
        "website": "http://www.google.com/"
      }
    },
    {
      "type": "Feature",
      "geometry": {
        "type": "Point",
        "coordinates": [ -76.733652, 39.464766 ]
    },
      "properties": {
        "name": "Green leaf Medical LLC",
        "phone": "888-234-5678",
        "address": "123 Reisterstown road",
        "city": "Frederck County",
        "district": 1,
        "county" : "Frederick County",
        "postalCode": "21209",
        "facebook": "http://www.youtube.com/",
        "website": "http://www.google.com/"
      }
    },
    {
      "type": "Feature",
      "geometry": {
        "type": "Point",
        "coordinates": [ -76.733652, 39.464766 ]
    },
      "properties": {
        "name": "HMS Health LLC",
        "phone": "888-234-5678",
        "address": "123 Reisterstown road",
        "city": "Frederick County",
        "district": 1,
        "county" : "Frederick County",
        "postalCode": "21209",
        "facebook": "http://www.youtube.com/",
        "website": "http://www.google.com/"
      }
    },
    {
      "type": "Feature",
      "geometry": {
        "type": "Point",
        "coordinates": [ -76.733652, 39.464766 ]
    },
      "properties": {
        "name": "Grow West MD LLC",
        "phone": "888-234-5678",
        "address": "123 Reisterstown road",
        "city": "Garrett County",
        "district": 1,
        "county" : "Garrett County",
        "postalCode": "21209",
        "facebook": "http://www.youtube.com/",
        "website": "http://www.google.com/"
      }
    },
    {
      "type": "Feature",
      "geometry": {
        "type": "Point",
        "coordinates": [ -76.733652, 39.464766 ]
    },
      "properties": {
        "name": "Freestate Wellness LLC",
        "phone": "888-234-5678",
        "address": "123 Reisterstown road",
        "city": "Howard County",
        "district": 1,
        "county" : "Howard County",
        "postalCode": "21209",
        "facebook": "http://www.youtube.com/",
        "website": "http://www.google.com/"
      }
    },
    {
      "type": "Feature",
      "geometry": {
        "type": "Point",
        "coordinates": [ -76.733652, 39.464766 ]
    },
      "properties": {
        "name": "Holistic Industries LLC",
        "phone": "888-234-5678",
        "address": "123 Reisterstown road",
        "city": "Prince George's County",
        "district": 1,
        "county" : "Prince George's County",
        "postalCode": "21209",
        "facebook": "http://www.youtube.com/",
        "website": "http://www.google.com/"
      }
    },
    {
      "type": "Feature",
      "geometry": {
        "type": "Point",
        "coordinates": [ -76.733652, 39.464766 ]
    },
      "properties": {
        "name": "Harvest of Maryland LLC",
        "phone": "888-234-5678",
        "address": "123 Reisterstown road",
        "city": "Washington County",
        "district": 1,
        "county" : "Washington County",
        "postalCode": "21209",
        "facebook": "http://www.youtube.com/",
        "website": "http://www.google.com/"
      }
    },
    {
      "type": "Feature",
      "geometry": {
        "type": "Point",
        "coordinates": [ -76.733652, 39.464766 ]
    },
      "properties": {
        "name": "Kind Therapeutics USA LLC",
        "phone": "888-234-5678",
        "address": "123 Reisterstown road",
        "city": "Washington County",
        "district": 1,
        "county" : "Washington County",
        "postalCode": "21209",
        "facebook": "http://www.youtube.com/",
        "website": "http://www.google.com/"
      }
    },
    {
      "type": "Feature",
      "geometry": {
        "type": "Point",
        "coordinates": [ -76.733652, 39.464766 ]
    },
      "properties": {
        "name": "Shore Natural Rx LLC",
        "phone": "888-234-5678",
        "address": "123 Reisterstown road",
        "city": "Worcester County",
        "district": 1,
        "county" : "Worcester County",
        "postalCode": "21209",
        "facebook": "http://www.youtube.com/",
        "website": "http://www.google.com/"
      }
    }
  ]
}
